<?xml version="1.0" encoding="UTF-8"?>
<GeocodeResponse>
 <status>OK</status>
 <result>
  <type>administrative_area_level_3</type>
  <type>political</type>
  <formatted_address>Bedford, Bedford, UK</formatted_address>
  <address_component>
   <long_name>Bedford</long_name>
   <short_name>Bedford</short_name>
   <type>administrative_area_level_3</type>
   <type>political</type>
  </address_component>
  <address_component>
   <long_name>Bedford</long_name>
   <short_name>Bedford</short_name>
   <type>administrative_area_level_2</type>
   <type>political</type>
  </address_component>
  <address_component>
   <long_name>England</long_name>
   <short_name>England</short_name>
   <type>administrative_area_level_1</type>
   <type>political</type>
  </address_component>
  <address_component>
   <long_name>United Kingdom</long_name>
   <short_name>GB</short_name>
   <type>country</type>
   <type>political</type>
  </address_component>
  <geometry>
   <location>
    <lat>52.1359783</lat>
    <lng>-0.4666513</lng>
   </location>
   <location_type>APPROXIMATE</location_type>
   <viewport>
    <southwest>
     <lat>52.0545323</lat>
     <lng>-0.6687744</lng>
    </southwest>
    <northeast>
     <lat>52.3229384</lat>
     <lng>-0.2407452</lng>
    </northeast>
   </viewport>
   <bounds>
    <southwest>
     <lat>52.0545323</lat>
     <lng>-0.6687744</lng>
    </southwest>
    <northeast>
     <lat>52.3229384</lat>
     <lng>-0.2407452</lng>
    </northeast>
   </bounds>
  </geometry>
 </result>
 <result>
  <type>locality</type>
  <type>political</type>
  <formatted_address>Bedford, TX, USA</formatted_address>
  <address_component>
   <long_name>Bedford</long_name>
   <short_name>Bedford</short_name>
   <type>locality</type>
   <type>political</type>
  </address_component>
  <address_component>
   <long_name>Tarrant County</long_name>
   <short_name>Tarrant County</short_name>
   <type>administrative_area_level_2</type>
   <type>political</type>
  </address_component>
  <address_component>
   <long_name>Texas</long_name>
   <short_name>TX</short_name>
   <type>administrative_area_level_1</type>
   <type>political</type>
  </address_component>
  <address_component>
   <long_name>United States</long_name>
   <short_name>US</short_name>
   <type>country</type>
   <type>political</type>
  </address_component>
  <geometry>
   <location>
    <lat>32.8440170</lat>
    <lng>-97.1430671</lng>
   </location>
   <location_type>APPROXIMATE</location_type>
   <viewport>
    <southwest>
     <lat>32.8220861</lat>
     <lng>-97.1686281</lng>
    </southwest>
    <northeast>
     <lat>32.8677840</lat>
     <lng>-97.0996879</lng>
    </northeast>
   </viewport>
   <bounds>
    <southwest>
     <lat>32.8220861</lat>
     <lng>-97.1686281</lng>
    </southwest>
    <northeast>
     <lat>32.8677840</lat>
     <lng>-97.0996879</lng>
    </northeast>
   </bounds>
  </geometry>
 </result>
 <result>
  <type>locality</type>
  <type>political</type>
  <formatted_address>Bedford, MA, USA</formatted_address>
  <address_component>
   <long_name>Bedford</long_name>
   <short_name>Bedford</short_name>
   <type>locality</type>
   <type>political</type>
  </address_component>
  <address_component>
   <long_name>Middlesex County</long_name>
   <short_name>Middlesex County</short_name>
   <type>administrative_area_level_2</type>
   <type>political</type>
  </address_component>
  <address_component>
   <long_name>Massachusetts</long_name>
   <short_name>MA</short_name>
   <type>administrative_area_level_1</type>
   <type>political</type>
  </address_component>
  <address_component>
   <long_name>United States</long_name>
   <short_name>US</short_name>
   <type>country</type>
   <type>political</type>
  </address_component>
  <geometry>
   <location>
    <lat>42.4906231</lat>
    <lng>-71.2760089</lng>
   </location>
   <location_type>APPROXIMATE</location_type>
   <viewport>
    <southwest>
     <lat>42.4595560</lat>
     <lng>-71.3211709</lng>
    </southwest>
    <northeast>
     <lat>42.5266301</lat>
     <lng>-71.2316350</lng>
    </northeast>
   </viewport>
   <bounds>
    <southwest>
     <lat>42.4595560</lat>
     <lng>-71.3211709</lng>
    </southwest>
    <northeast>
     <lat>42.5266301</lat>
     <lng>-71.2316350</lng>
    </northeast>
   </bounds>
  </geometry>
 </result>
 <result>
  <type>locality</type>
  <type>political</type>
  <formatted_address>Bedford, NH, USA</formatted_address>
  <address_component>
   <long_name>Bedford</long_name>
   <short_name>Bedford</short_name>
   <type>locality</type>
   <type>political</type>
  </address_component>
  <address_component>
   <long_name>Hillsborough County</long_name>
   <short_name>Hillsborough County</short_name>
   <type>administrative_area_level_2</type>
   <type>political</type>
  </address_component>
  <address_component>
   <long_name>New Hampshire</long_name>
   <short_name>NH</short_name>
   <type>administrative_area_level_1</type>
   <type>political</type>
  </address_component>
  <address_component>
   <long_name>United States</long_name>
   <short_name>US</short_name>
   <type>country</type>
   <type>political</type>
  </address_component>
  <geometry>
   <location>
    <lat>42.9463291</lat>
    <lng>-71.5132008</lng>
   </location>
   <location_type>APPROXIMATE</location_type>
   <viewport>
    <southwest>
     <lat>42.8962772</lat>
     <lng>-71.6164399</lng>
    </southwest>
    <northeast>
     <lat>42.9828864</lat>
     <lng>-71.4525354</lng>
    </northeast>
   </viewport>
   <bounds>
    <southwest>
     <lat>42.8962772</lat>
     <lng>-71.6164399</lng>
    </southwest>
    <northeast>
     <lat>42.9828864</lat>
     <lng>-71.4525354</lng>
    </northeast>
   </bounds>
  </geometry>
 </result>
 <result>
  <type>locality</type>
  <type>political</type>
  <formatted_address>Bedford, OH, USA</formatted_address>
  <address_component>
   <long_name>Bedford</long_name>
   <short_name>Bedford</short_name>
   <type>locality</type>
   <type>political</type>
  </address_component>
  <address_component>
   <long_name>Cuyahoga County</long_name>
   <short_name>Cuyahoga County</short_name>
   <type>administrative_area_level_2</type>
   <type>political</type>
  </address_component>
  <address_component>
   <long_name>Ohio</long_name>
   <short_name>OH</short_name>
   <type>administrative_area_level_1</type>
   <type>political</type>
  </address_component>
  <address_component>
   <long_name>United States</long_name>
   <short_name>US</short_name>
   <type>country</type>
   <type>political</type>
  </address_component>
  <geometry>
   <location>
    <lat>41.3931096</lat>
    <lng>-81.5365094</lng>
   </location>
   <location_type>APPROXIMATE</location_type>
   <viewport>
    <southwest>
     <lat>41.3716680</lat>
     <lng>-81.5706400</lng>
    </southwest>
    <northeast>
     <lat>41.4096259</lat>
     <lng>-81.5079080</lng>
    </northeast>
   </viewport>
   <bounds>
    <southwest>
     <lat>41.3716680</lat>
     <lng>-81.5706400</lng>
    </southwest>
    <northeast>
     <lat>41.4096259</lat>
     <lng>-81.5079080</lng>
    </northeast>
   </bounds>
  </geometry>
 </result>
 <result>
  <type>locality</type>
  <type>political</type>
  <formatted_address>Bedford, IN 47421, USA</formatted_address>
  <address_component>
   <long_name>Bedford</long_name>
   <short_name>Bedford</short_name>
   <type>locality</type>
   <type>political</type>
  </address_component>
  <address_component>
   <long_name>Shawswick</long_name>
   <short_name>Shawswick</short_name>
   <type>administrative_area_level_3</type>
   <type>political</type>
  </address_component>
  <address_component>
   <long_name>Lawrence County</long_name>
   <short_name>Lawrence County</short_name>
   <type>administrative_area_level_2</type>
   <type>political</type>
  </address_component>
  <address_component>
   <long_name>Indiana</long_name>
   <short_name>IN</short_name>
   <type>administrative_area_level_1</type>
   <type>political</type>
  </address_component>
  <address_component>
   <long_name>United States</long_name>
   <short_name>US</short_name>
   <type>country</type>
   <type>political</type>
  </address_component>
  <address_component>
   <long_name>47421</long_name>
   <short_name>47421</short_name>
   <type>postal_code</type>
  </address_component>
  <geometry>
   <location>
    <lat>38.8611619</lat>
    <lng>-86.4872149</lng>
   </location>
   <location_type>APPROXIMATE</location_type>
   <viewport>
    <southwest>
     <lat>38.8256809</lat>
     <lng>-86.5263260</lng>
    </southwest>
    <northeast>
     <lat>38.8863580</lat>
     <lng>-86.4379509</lng>
    </northeast>
   </viewport>
   <bounds>
    <southwest>
     <lat>38.8256809</lat>
     <lng>-86.5263260</lng>
    </southwest>
    <northeast>
     <lat>38.8863580</lat>
     <lng>-86.4379509</lng>
    </northeast>
   </bounds>
  </geometry>
 </result>
</GeocodeResponse>
